[{"title":"きのくに信用金庫串本支店","lat":"33.4693605598754","lng":"135.780714542487","content":"東牟婁郡串本町串本1735","tel":"07356-2-0067","business_hours":"9:00～15:00","closing_day":"土、日、祝日","parking":"一般駐車場 有り：7台","toilet":""},{"title":"串本郵便局","lat":"33.4723411665484","lng":"135.78244479713","content":"東牟婁郡串本町串本2370","tel":"07356-2-0050","business_hours":"9:00～18:00","closing_day":"土、日","parking":"一般駐車場 有り：5台 障害者用駐車場 有り：1台","toilet":"障害者（車椅子）用便所 有り：1箇所 洋式大便所 有り：1箇所 手すり付便所 有り：1箇所"},{"title":"有田郵便局","lat":"33.4861355121221","lng":"135.737717705582","content":"東牟婁郡串本町有田649","tel":"07356-6-0542","business_hours":"9:00～17:00（郵便） 9:00～16:00（貯金・保険）","closing_day":"土、日、祝日","parking":"","toilet":"\r"},{"title":"田並郵便局","lat":"33.4876055093014","lng":"135.718366526271","content":"東牟婁郡串本町田並1560-1","tel":"07356-6-0050","business_hours":"9:00～17:30","closing_day":"土、日","parking":"","toilet":"\r"},{"title":"和深郵便局","lat":"33.5018455198089","lng":"135.656585295318","content":"東牟婁郡串本町和深343","tel":"07356-7-0042","business_hours":"9:00～17:00（郵便）9:00～16:00（預金・保険）","closing_day":"土、日","parking":"","toilet":"\r"},{"title":"大島郵便局","lat":"33.4719463595177","lng":"135.802215106983","content":"東牟婁郡串本町大島29-1","tel":"07356-5-0242","business_hours":"9:00～17:00（郵便） 9:00～16:00（預金・保険）","closing_day":"土、日、祝日","parking":"一般駐車場 有り：2台","toilet":""},{"title":"古座中湊郵便局","lat":"33.5211336280191","lng":"135.826764399317","content":"東牟婁郡串本町中湊102-3","tel":"07357-2-1922","business_hours":"9:00～17:00","closing_day":"土、日、祝日","parking":"一般駐車場 有り：2台","toilet":"洋式大便所 有り：2箇所"},{"title":"第三銀行古座支店","lat":"33.5218557063186","lng":"135.824959031435","content":"東牟婁郡串本町中湊497-2","tel":"07357-2-0090・0091","business_hours":"9:00～15:00","closing_day":"土、日、祝日","parking":"一般駐車場 有り：5台","toilet":""}]