[{"title":"串本町役場","lat":"33.472610213008","lng":"135.781408777681","content":"東牟婁郡串本町串本1800","tel":"07356-2-0555","business_hours":"8:30～17：15","closing_day":"土、日、祝祭日","parking":"一般駐車場 有り：27台","toilet":"障害者（車椅子）用便所 有り：11箇所"},{"title":"和歌山県東牟婁振興局串本建設部","lat":"33.473804630792","lng":"135.783658545277","content":"東牟婁郡串本町串本2491","tel":"07356-2-0755","business_hours":"9:00～17：30","closing_day":"土、日、祝日","parking":"一般駐車場 有り：15台","toilet":"障害者（車椅子）用便所 有り：1箇所（1階廊下玄関） 洋式大便所 有り 手すり付便所 有り：6箇所"},{"title":"串本簡易裁判所","lat":"33.4635833982066","lng":"135.780436953034","content":"東牟婁郡串本町串本1531","tel":"07356-2-0212","business_hours":"8:30～17:15","closing_day":"土、日、祝日","parking":"一般駐車場 有り：7台","toilet":"障害者（車椅子）用便所 有り：1箇所（1階）"},{"title":"串本警察署","lat":"33.4730612654229","lng":"135.781529852674","content":"東牟婁郡串本町串本2114","tel":"0735-62-0110","business_hours":"終日","closing_day":"なし","parking":"一般駐車場 有り：10台","toilet":""},{"title":"串本町役場古座分庁舎","lat":"33.5181060813036","lng":"135.823042618156","content":"東牟婁郡串本町西向359","tel":"07357-2-0081","business_hours":"8:30～17:15","closing_day":"土、日、祝祭日","parking":"一般駐車場 有り：61台 障害者用駐車場 有り：2台","toilet":"障害者（車椅子）用便所 有り：3箇所 手すり付便所 有り"},{"title":"古座福祉センター","lat":"33.5185229743471","lng":"135.833569497753","content":"東牟婁郡串本町上野山291-4","tel":"0735-72-3539","business_hours":"8:30～17:15","closing_day":"日曜日","parking":"一般駐車場 有り：10台 障害者用駐車場 有り：2台","toilet":"障害者（車椅子）用便所 有り：1箇所（ホール右横一般便所入口右側） 手すり付便所 有り：1箇所 洋式大便所 有り：3箇所"},{"title":"和歌山県水産研究所","lat":"33.4615004321039","lng":"135.784908835153","content":"東牟婁郡串本町串本1557－20","tel":"0735-62-0940","business_hours":"9:00～17:45","closing_day":"土・日・祝日","parking":"一般駐車場 有り：100台 障害者用駐車場 有り：2台","toilet":"障害者（車椅子）用便所 有り：1箇所 洋式大便所 有り：9箇所 手すり付便所 有り：2箇所 オストメイト対応便所 有り"}]