[{"title":"串本町立文化センター","lat":"33.4726897654162","lng":"135.784108542545","content":"東牟婁郡串本町串本2427","tel":"07356-2-5105","business_hours":"8:30～17:15","closing_day":"土、日、祝祭日","parking":"一般駐車場 有り：22台 障害者用駐車場 有り","toilet":"障害者（車椅子）用便所 有り：1箇所（ホール右側） 手すり付便所 有り：1箇所 洋式大便所 有り"},{"title":"串本町地域保健福祉センター","lat":"33.4715548856263","lng":"135.78382530362","content":"東牟婁郡串本町串本2367","tel":"0735-62-1522","business_hours":"8:30～17:15","closing_day":"土・日・祝祭日","parking":"一般駐車場 有り：職員用と兼用（町道横断必要あり） 障害者用駐車場 有り：1台","toilet":"障害者（車椅子）用便所 有り：2箇所 洋式大便所 有り：6箇所 手すり付便所 有り：14箇所"},{"title":"串本町立体育館","lat":"33.4724572926199","lng":"135.784164145268","content":"東牟婁郡串本町串本2427","tel":"07356-2-5105","business_hours":"9:00～17:00","closing_day":"月","parking":"一般駐車場 有り：20台","toilet":"障害者（車椅子）用便所 有り：1箇所"},{"title":"串本町立串本中学校体育館","lat":"33.4628126838428","lng":"135.780421179285","content":"東牟婁郡串本町串本1620","tel":"0735-62-0165","business_hours":"8:15～16:45","closing_day":"土、日、祝祭日","parking":"一般駐車場 有り：24台 障害者用駐車場 有り：1台","toilet":"障害者（車椅子）用便所 有り：1箇所"},{"title":"錦富小学校","lat":"33.4834420321804","lng":"135.765020939552","content":"東牟婁郡串本町二色360","tel":"0735-62-0339","business_hours":"8:30～16:45","closing_day":"土・日・祭日","parking":"一般駐車場 有り：8台","toilet":"障害者（車椅子）用便所 有り：1箇所（体育館入口横）"}]