[{"title":"オークワ串本店","lat":"33.4762626471909","lng":"135.783248801126","content":"東牟婁郡串本町串本40-22","tel":"0735-62-0312","business_hours":"本館1階 24時間 本館2階 9:00～23:00","closing_day":"年中無休","parking":"一般駐車場 有り：250台","toilet":"洋式大便所 有り：1箇所"},{"title":"AコープVASEO","lat":"33.4626502309125","lng":"135.781696574681","content":"東牟婁郡串本町串本1551－1","tel":"0735-69-2222","business_hours":"9:00～20:00","closing_day":"なし","parking":"一般駐車場 有り：50台 障害者用駐車場 有り：2台","toilet":"障害者（車椅子）用便所 有り：1箇所（男女便所近く）"},{"title":"コーナンホームストック串本店","lat":"33.4798317679236","lng":"135.788491334119","content":"東牟婁郡串本町串本2300-1","tel":"0735-69-1055","business_hours":"10:00～20:00","closing_day":"なし","parking":"一般駐車場 有り：38台 障害者用駐車場 有り：1台","toilet":"障害者（車椅子）用便所 有り：1箇所（入口左側） 手すり付便所 有り：1箇所"},{"title":"ＷＡＹ串本","lat":"33.4762218731437","lng":"135.784191521233","content":"東牟婁郡串本町串本2079-1","tel":"0735-62-3961","business_hours":"9:30～23:00","closing_day":"なし","parking":"一般駐車場 有り：75台 障害者用駐車場 有り：1台","toilet":"手すり付便所 有り：1箇所"},{"title":"オークワ串本店（ダイソー館）","lat":"33.4766654090226","lng":"135.783547362388","content":"東牟婁郡串本町串本2001","tel":"0735-62-0312","business_hours":"9:00～22:00","closing_day":"なし","parking":"一般駐車場 有り：35台（オークワ共有） 障害者用駐車場 有り：1台","toilet":"障害者（車椅子）用便所 有り：1箇所（正面中央入口右側） 洋式大便所 有り：2箇所 手すり付便所 有り：2箇所 オストメイト対応便所 有り"},{"title":"ミスタージョン串本店","lat":"33.4947166848641","lng":"135.796335976781","content":"東牟婁郡串本町姫字ゴウラ718-14","tel":"0735-72-1966","business_hours":"10:00～20:00","closing_day":"年4回","parking":"一般駐車場 有り：82台 障害者用駐車場 有り：2台","toilet":"障害者（車椅子）用便所 有り：1箇所 洋式大便所 有り：2箇所 手すり付便所 有り：2箇所"}]